name,property_type,description,estate_land_title,status,city,state,address,postal_code,nearest_landmark,latitude,longitude
# REQUIRED — Unique property name,# optional — Type of property. Valid values: RESIDENTIAL_LAND|FARM_LAND|COMMERCIAL|MIXED_USE,# optional — Free-text description of the property,# optional — Title deed / C of O reference number,# optional — Publication status. Valid values: DRAFT|PUBLISHED,# REQUIRED — City where the property is located,# REQUIRED — State where the property is located,# optional — Street address (auto-generated from city+state if blank),# optional — Postal / ZIP code,# optional — Notable landmark near the property,# optional — GPS latitude in decimal degrees (e.g. 6.524379),# optional — GPS longitude in decimal degrees (e.g. 3.379206)
Sunset Gardens Phase 1,RESIDENTIAL_LAND,"Premium residential plots in a fully serviced estate with perimeter fencing, road network and estate gate.",C of O No. LAG/2024/001,PUBLISHED,Ibeju-Lekki,Lagos,KM 35 Lekki-Epe Expressway,106104,Near Eleko Beach,6.4523,3.8741
Green Valley Farm Estate,FARM_LAND,Arable farmland suitable for crop cultivation and agro-processing.,Survey Plan No. OG/789,DRAFT,Abeokuta,Ogun,Sagamu-Abeokuta Road,,Near FUNAAB,7.1475,3.3619
Victoria Commerce Hub,COMMERCIAL,"Commercial plots in a high-traffic business district with 24/7 power and fibre connectivity.",,DRAFT,Victoria Island,Lagos,Adeola Odeku Street,101241,Near Four Points Hotel,6.4281,3.4219
Harmony Mixed-Use Park,MIXED_USE,Mixed residential and commercial plots ideal for buy-to-let investment.,Gov't Consent No. KN/44,DRAFT,Kano,Kano,Audu Bako Way,,Near Kano State Secretariat,12.0022,8.5919
Palm Court Residences,RESIDENTIAL_LAND,"Gated estate with security, electricity and tarred internal roads.",C of O No. ABO/2023/55,PUBLISHED,Kubwa,Abuja,Airport Road,900108,Off Nnamdi Azikiwe International Airport,9.0082,7.3917
